<?xml version="1.0" encoding="UTF-8"?>
<kml xmlns="http://www.opengis.net/kml/2.2"><Document><Style id="fillColor:5959594d_strokeColor:595959ff_strokeWidth:1.2"><LineStyle><color>ff595959</color><width>1.2</width></LineStyle><PolyStyle><color>4d595959</color><fill>1</fill><outline>1</outline></PolyStyle></Style><ExtendedData><Data name="creator"><value><![CDATA[Yandex Map Constructor]]></value></Data></ExtendedData><name><![CDATA[Oyster зона доступности сети]]></name><description><![CDATA[Карта зоны доступности]]></description><Folder><Placemark><name/><description><![CDATA[зона доступности сети]]></description><styleUrl>#fillColor:5959594d_strokeColor:595959ff_strokeWidth:1.2</styleUrl><Polygon><outerBoundaryIs><LinearRing><coordinates>30.3330231,59.7875552 30.3412628,59.7892828 30.3549957,59.7965377 30.3632355,59.8041363 30.3742218,59.8110427 30.3886413,59.8141501 30.4078674,59.8176024 30.422287,59.8227802 30.4367065,59.8296827 30.4470062,59.8379638 30.4538727,59.8438283 30.464859,59.8493469 30.4785919,59.8524508 30.4875183,59.8562439 30.4813385,59.8648632 30.4737854,59.8679655 30.4614258,59.8703783 30.453186,59.8734801 30.4476929,59.8793384 30.4442596,59.8848512 30.4394531,59.8924297 30.4332733,59.8996621 30.4270935,59.9027612 30.4147339,59.9086143 30.4030609,59.913778 30.3920746,59.9230706 30.3900146,59.9302963 30.3920746,59.9358006 30.3961944,59.94096 30.398941,59.9454309 30.4003143,59.9516203 30.3927612,59.9543708 30.3858948,59.9560897 30.377655,59.954027 30.3666687,59.9512765 30.3529358,59.950245 30.3405762,59.9495573 30.3302765,59.9481819 30.3261566,59.9529956 30.3371429,59.9543708 30.3508758,59.9533394 30.3598022,59.9533394 30.3694153,59.9547146 30.379715,59.9564335 30.3879547,59.9595273 30.4030609,59.9581523 30.4078674,59.9564335 30.4092407,59.9526518 30.4078674,59.9485257 30.4037475,59.9354566 30.4023743,59.9296082 30.4016876,59.9265116 30.4108356,59.9224596 30.4140472,59.9151548 30.4250336,59.9093029 30.4353332,59.9055158 30.4408264,59.9024169 30.4442596,59.8996621 30.4483795,59.8931185 30.4511261,59.8882961 30.4579925,59.8779601 30.464859,59.8727909 30.4792786,59.8700336 30.4875183,59.8689996 30.4930115,59.8793384 30.4936981,59.8913963 30.4902649,59.9013839 30.4888916,59.9068929 30.5012512,59.9103356 30.4998779,59.9179083 30.4930115,59.9247911 30.4936981,59.9302963 30.4943848,59.9354566 30.4991913,59.945087 30.5012512,59.9529956 30.4916382,59.9619334 30.4840851,59.9670888 30.4730987,59.9763664 30.4669189,59.9877022 30.4676056,60.0014374 30.4586792,60.0113918 30.4483795,60.0227156 30.4373932,60.0323207 30.4250336,60.0432945 30.4099274,60.0494656 30.3858948,60.0559783 30.3790283,60.0645458 30.3762817,60.0761939 30.3687286,60.0909195 30.3460693,60.0919466 30.3289032,60.093316 30.3041839,60.0833863 30.302124,60.0703703 30.2897644,60.0635178 30.2753448,60.0611191 30.2616119,60.060091 30.2485657,60.060091 30.2293396,60.0549501 30.2334595,60.0463802 30.2533722,60.0323207 30.2554321,60.0237449 30.2437591,60.0199708 30.2300262,60.0192846 30.2286529,60.0158532 30.2348328,60.0086461 30.21492,60.0083029 30.1977539,60.0072731 30.193634,60.0004075 30.1853943,59.9938838 30.1805878,59.9911366 30.1709747,59.9969741 30.1634216,60.0024673 30.1387024,60.0055568 30.1187897,59.9949139 30.1105499,59.99148 30.1407623,59.989076 30.1737213,59.9866719 30.181961,59.9883891 30.1922607,59.9849545 30.2032471,59.9801455 30.2300262,59.9815196 30.2492523,59.97671 30.2231598,59.9746486 30.2204132,59.9701816 30.2423859,59.9657141 30.2341461,59.9629646 30.2368927,59.9598711 30.2568054,59.9591836 30.2725983,59.9564335 30.2870178,59.9523079 30.2828979,59.9485257 30.2732849,59.9488696 30.258985,59.954308 30.2471924,59.9560897 30.2307129,59.9567773 30.2231598,59.9495573 30.226593,59.9337366 30.2396393,59.9247911 30.2540588,59.9196292 30.2629852,59.9206616 30.269165,59.9289201 30.277015,59.935315 30.2945709,59.9378645 30.3034973,59.9419918 30.3069305,59.9395843 30.2952576,59.9351126 30.2848936,59.9307744 30.2780914,59.9289201 30.2725983,59.9247911 30.2664184,59.9182525 30.2574921,59.915499 30.2430725,59.913778 30.2334595,59.9068929 30.2313995,59.9006952 30.2485657,59.8924297 30.2574921,59.8889851 30.2506256,59.8862292 30.2458191,59.8779601 30.2444458,59.8717569 30.2300262,59.8603814 30.2204132,59.854175 30.1661682,59.8634842 30.1476288,59.8572784 30.1448822,59.8496918 30.1469421,59.8383088 30.1476288,59.8286474 30.1483154,59.8238156 30.1826477,59.8227802 30.1565552,59.8027549 30.1332092,59.7896283 30.1222229,59.7782247 30.1194763,59.772003 30.1352692,59.7661258 30.1455688,59.7695831 30.1579285,59.7865186 30.1750946,59.7937741 30.2018738,59.7979194 30.2403259,59.7930832 30.2705383,59.7892828 30.3007507,59.7868642 30.32547,59.7868642 30.3330231,59.7875552</coordinates></LinearRing></outerBoundaryIs></Polygon></Placemark><Placemark><name><![CDATA[Басков пер., 7]]></name><description/><Style><IconStyle><color>ff40db56</color><Icon><href>https://api-maps.yandex.ru/i/0.4/micro/pmgns.png</href></Icon><hotSpot x="7" y="28" xunits="pixels" yunits="insetPixels"/></IconStyle></Style><Point><coordinates>30.353841,59.939438</coordinates></Point></Placemark><Placemark><name><![CDATA[Аптекарский пр., 2]]></name><description/><Style><IconStyle><color>ff40db56</color><Icon><href>https://api-maps.yandex.ru/i/0.4/micro/pmgns.png</href></Icon><hotSpot x="7" y="28" xunits="pixels" yunits="insetPixels"/></IconStyle></Style><Point><coordinates>30.3180224,59.9688324</coordinates></Point></Placemark><Placemark><name><![CDATA[ул. Бассейная, 21]]></name><description/><Style><IconStyle><color>ff40db56</color><Icon><href>https://api-maps.yandex.ru/i/0.4/micro/pmgns.png</href></Icon><hotSpot x="7" y="28" xunits="pixels" yunits="insetPixels"/></IconStyle></Style><Point><coordinates>30.309451,59.864263</coordinates></Point></Placemark><Placemark><name><![CDATA[Биржевая линия, 8]]></name><description/><Style><IconStyle><color>ff40db56</color><Icon><href>https://api-maps.yandex.ru/i/0.4/micro/pmgns.png</href></Icon><hotSpot x="7" y="28" xunits="pixels" yunits="insetPixels"/></IconStyle></Style><Point><coordinates>30.2965084,59.9433004</coordinates></Point></Placemark><Placemark><name><![CDATA[Большой Сампсониевский пр., 62]]></name><description/><Style><IconStyle><color>ff40db56</color><Icon><href>https://api-maps.yandex.ru/i/0.4/micro/pmgns.png</href></Icon><hotSpot x="7" y="28" xunits="pixels" yunits="insetPixels"/></IconStyle></Style><Point><coordinates>30.338454,59.975426</coordinates></Point></Placemark><Placemark><name><![CDATA[Боровая ул., 57]]></name><description/><Style><IconStyle><color>ff40db56</color><Icon><href>https://api-maps.yandex.ru/i/0.4/micro/pmgns.png</href></Icon><hotSpot x="7" y="28" xunits="pixels" yunits="insetPixels"/></IconStyle></Style><Point><coordinates>30.339978,59.91069</coordinates></Point></Placemark><Placemark><name><![CDATA[ул. Возрождения, 4а]]></name><description/><Style><IconStyle><color>ff40db56</color><Icon><href>https://api-maps.yandex.ru/i/0.4/micro/pmgns.png</href></Icon><hotSpot x="7" y="28" xunits="pixels" yunits="insetPixels"/></IconStyle></Style><Point><coordinates>30.268697,59.882719</coordinates></Point></Placemark><Placemark><name><![CDATA[Галерная ул., 73]]></name><description/><Style><IconStyle><color>ff40db56</color><Icon><href>https://api-maps.yandex.ru/i/0.4/micro/pmgns.png</href></Icon><hotSpot x="7" y="28" xunits="pixels" yunits="insetPixels"/></IconStyle></Style><Point><coordinates>30.2848936,59.9307744</coordinates></Point></Placemark><Placemark><name><![CDATA[Гороховая ул., 47]]></name><description/><Style><IconStyle><color>ff40db56</color><Icon><href>https://api-maps.yandex.ru/i/0.4/micro/pmgns.png</href></Icon><hotSpot x="7" y="28" xunits="pixels" yunits="insetPixels"/></IconStyle></Style><Point><coordinates>30.3232381,59.927546</coordinates></Point></Placemark><Placemark><name><![CDATA[Кондратьевский пр., 21]]></name><description/><Style><IconStyle><color>ff40db56</color><Icon><href>https://api-maps.yandex.ru/i/0.4/micro/pmgns.png</href></Icon><hotSpot x="7" y="28" xunits="pixels" yunits="insetPixels"/></IconStyle></Style><Point><coordinates>30.384169,59.966864</coordinates></Point></Placemark><Placemark><name><![CDATA[Кондратьевский пр., 3]]></name><description/><Style><IconStyle><color>ff40db56</color><Icon><href>https://api-maps.yandex.ru/i/0.4/micro/pmgns.png</href></Icon><hotSpot x="7" y="28" xunits="pixels" yunits="insetPixels"/></IconStyle></Style><Point><coordinates>30.3862466,59.9808534</coordinates></Point></Placemark><Placemark><name><![CDATA[Конюшенная пл., 2]]></name><description/><Style><IconStyle><color>ff40db56</color><Icon><href>https://api-maps.yandex.ru/i/0.4/micro/pmgns.png</href></Icon><hotSpot x="7" y="28" xunits="pixels" yunits="insetPixels"/></IconStyle></Style><Point><coordinates>30.3253552,59.940627</coordinates></Point></Placemark><Placemark><name><![CDATA[Лифляндская ул., 1]]></name><description/><Style><IconStyle><color>ff40db56</color><Icon><href>https://api-maps.yandex.ru/i/0.4/micro/pmgns.png</href></Icon><hotSpot x="7" y="28" xunits="pixels" yunits="insetPixels"/></IconStyle></Style><Point><coordinates>30.2623875,59.9084364</coordinates></Point></Placemark><Placemark><name><![CDATA[ул. Маяковского, 37]]></name><description/><Style><IconStyle><color>ff40db56</color><Icon><href>https://api-maps.yandex.ru/i/0.4/micro/pmgns.png</href></Icon><hotSpot x="7" y="28" xunits="pixels" yunits="insetPixels"/></IconStyle></Style><Point><coordinates>30.3557345,59.9417185</coordinates></Point></Placemark><Placemark><name><![CDATA[набережная Обводного канала, 139]]></name><description/><Style><IconStyle><color>ff40db56</color><Icon><href>https://api-maps.yandex.ru/i/0.4/micro/pmgns.png</href></Icon><hotSpot x="7" y="28" xunits="pixels" yunits="insetPixels"/></IconStyle></Style><Point><coordinates>30.3155324,59.9090921</coordinates></Point></Placemark><Placemark><name><![CDATA[Пискарёвский пр., 52]]></name><description/><Style><IconStyle><color>ff40db56</color><Icon><href>https://api-maps.yandex.ru/i/0.4/micro/pmgns.png</href></Icon><hotSpot x="7" y="28" xunits="pixels" yunits="insetPixels"/></IconStyle></Style><Point><coordinates>30.4281301,59.9913496</coordinates></Point></Placemark><Placemark><name><![CDATA[Троицкий пр., 4]]></name><description/><Style><IconStyle><color>ff40db56</color><Icon><href>https://api-maps.yandex.ru/i/0.4/micro/pmgns.png</href></Icon><hotSpot x="7" y="28" xunits="pixels" yunits="insetPixels"/></IconStyle></Style><Point><coordinates>30.30459,59.915724</coordinates></Point></Placemark><Placemark><name><![CDATA[набережная реки Фонтанки, 78]]></name><description/><Style><IconStyle><color>ff40db56</color><Icon><href>https://api-maps.yandex.ru/i/0.4/micro/pmgns.png</href></Icon><hotSpot x="7" y="28" xunits="pixels" yunits="insetPixels"/></IconStyle></Style><Point><coordinates>30.3333061,59.9270478</coordinates></Point></Placemark><Placemark><name><![CDATA[ул. Циолковского, 11]]></name><description/><Style><IconStyle><color>ff40db56</color><Icon><href>https://api-maps.yandex.ru/i/0.4/micro/pmgns.png</href></Icon><hotSpot x="7" y="28" xunits="pixels" yunits="insetPixels"/></IconStyle></Style><Point><coordinates>30.2871543,59.9104931</coordinates></Point></Placemark><Placemark><name><![CDATA[ул. Чапыгина, 8]]></name><description/><Style><IconStyle><color>ff40db56</color><Icon><href>https://api-maps.yandex.ru/i/0.4/micro/pmgns.png</href></Icon><hotSpot x="7" y="28" xunits="pixels" yunits="insetPixels"/></IconStyle></Style><Point><coordinates>30.310491,59.974459</coordinates></Point></Placemark><Placemark><name><![CDATA[13-я лин. В.О, 6]]></name><description/><Style><IconStyle><color>ff40db56</color><Icon><href>https://api-maps.yandex.ru/i/0.4/micro/pmgns.png</href></Icon><hotSpot x="7" y="28" xunits="pixels" yunits="insetPixels"/></IconStyle></Style><Point><coordinates>30.277015,59.935315</coordinates></Point></Placemark><Placemark><name><![CDATA[5-я Советская ул., 3]]></name><description/><Style><IconStyle><color>ff40db56</color><Icon><href>https://api-maps.yandex.ru/i/0.4/micro/pmgns.png</href></Icon><hotSpot x="7" y="28" xunits="pixels" yunits="insetPixels"/></IconStyle></Style><Point><coordinates>30.3676601,59.9352189</coordinates></Point></Placemark><Placemark><name><![CDATA[Большая Морская ул., 18]]></name><description/><Style><IconStyle><color>ff40db56</color><Icon><href>https://api-maps.yandex.ru/i/0.4/micro/pmgns.png</href></Icon><hotSpot x="7" y="28" xunits="pixels" yunits="insetPixels"/></IconStyle></Style><Point><coordinates>30.31608,59.934882</coordinates></Point></Placemark><Placemark><name><![CDATA[Боровая ул., 104]]></name><description/><Style><IconStyle><color>ff40db56</color><Icon><href>https://api-maps.yandex.ru/i/0.4/micro/pmgns.png</href></Icon><hotSpot x="7" y="28" xunits="pixels" yunits="insetPixels"/></IconStyle></Style><Point><coordinates>30.3412385,59.9091929</coordinates></Point></Placemark><Placemark><name><![CDATA[Дмитровский пер., 13]]></name><description/><Style><IconStyle><color>ff40db56</color><Icon><href>https://api-maps.yandex.ru/i/0.4/micro/pmgns.png</href></Icon><hotSpot x="7" y="28" xunits="pixels" yunits="insetPixels"/></IconStyle></Style><Point><coordinates>30.3497458,59.9295495</coordinates></Point></Placemark><Placemark><name><![CDATA[ул. Достоевского, 44а]]></name><description/><Style><IconStyle><color>ff40db56</color><Icon><href>https://api-maps.yandex.ru/i/0.4/micro/pmgns.png</href></Icon><hotSpot x="7" y="28" xunits="pixels" yunits="insetPixels"/></IconStyle></Style><Point><coordinates>30.3451454,59.9223051</coordinates></Point></Placemark><Placemark><name><![CDATA[Инженерная ул., 6]]></name><description/><Style><IconStyle><color>ff40db56</color><Icon><href>https://api-maps.yandex.ru/i/0.4/micro/pmgns.png</href></Icon><hotSpot x="7" y="28" xunits="pixels" yunits="insetPixels"/></IconStyle></Style><Point><coordinates>30.337036,59.937667</coordinates></Point></Placemark><Placemark><name><![CDATA[Кантемировская ул., 12]]></name><description/><Style><IconStyle><color>ff40db56</color><Icon><href>https://api-maps.yandex.ru/i/0.4/micro/pmgns.png</href></Icon><hotSpot x="7" y="28" xunits="pixels" yunits="insetPixels"/></IconStyle></Style><Point><coordinates>30.330305,59.983881</coordinates></Point></Placemark><Placemark><name><![CDATA[Киевская ул., 5]]></name><description/><Style><IconStyle><color>ff40db56</color><Icon><href>https://api-maps.yandex.ru/i/0.4/micro/pmgns.png</href></Icon><hotSpot x="7" y="28" xunits="pixels" yunits="insetPixels"/></IconStyle></Style><Point><coordinates>30.3242427,59.9025348</coordinates></Point></Placemark><Placemark><name><![CDATA[Курская ул., 28]]></name><description/><Style><IconStyle><color>ff40db56</color><Icon><href>https://api-maps.yandex.ru/i/0.4/micro/pmgns.png</href></Icon><hotSpot x="7" y="28" xunits="pixels" yunits="insetPixels"/></IconStyle></Style><Point><coordinates>30.3538607,59.9112604</coordinates></Point></Placemark><Placemark><name><![CDATA[Лиговский пр., 150]]></name><description/><Style><IconStyle><color>ff40db56</color><Icon><href>https://api-maps.yandex.ru/i/0.4/micro/pmgns.png</href></Icon><hotSpot x="7" y="28" xunits="pixels" yunits="insetPixels"/></IconStyle></Style><Point><coordinates>30.349857,59.913023</coordinates></Point></Placemark><Placemark><name><![CDATA[Лиговский пр., 289]]></name><description/><Style><IconStyle><color>ff40db56</color><Icon><href>https://api-maps.yandex.ru/i/0.4/micro/pmgns.png</href></Icon><hotSpot x="7" y="28" xunits="pixels" yunits="insetPixels"/></IconStyle></Style><Point><coordinates>30.3293711,59.894703</coordinates></Point></Placemark><Placemark><name><![CDATA[Лиговский пр., 56]]></name><description/><Style><IconStyle><color>ff40db56</color><Icon><href>https://api-maps.yandex.ru/i/0.4/micro/pmgns.png</href></Icon><hotSpot x="7" y="28" xunits="pixels" yunits="insetPixels"/></IconStyle></Style><Point><coordinates>30.3602983,59.9244498</coordinates></Point></Placemark><Placemark><name><![CDATA[Лодейнопольская ул., 5]]></name><description/><Style><IconStyle><color>ff40db56</color><Icon><href>https://api-maps.yandex.ru/i/0.4/micro/pmgns.png</href></Icon><hotSpot x="7" y="28" xunits="pixels" yunits="insetPixels"/></IconStyle></Style><Point><coordinates>30.2894783,59.9637972</coordinates></Point></Placemark><Placemark><name><![CDATA[Менделеевская ул., 9]]></name><description/><Style><IconStyle><color>ff40db56</color><Icon><href>https://api-maps.yandex.ru/i/0.4/micro/pmgns.png</href></Icon><hotSpot x="7" y="28" xunits="pixels" yunits="insetPixels"/></IconStyle></Style><Point><coordinates>30.3643334,59.9769219</coordinates></Point></Placemark><Placemark><name><![CDATA[Московский пр-т., 22]]></name><description/><Style><IconStyle><color>ff40db56</color><Icon><href>https://api-maps.yandex.ru/i/0.4/micro/pmgns.png</href></Icon><hotSpot x="7" y="28" xunits="pixels" yunits="insetPixels"/></IconStyle></Style><Point><coordinates>30.3181633,59.9196319</coordinates></Point></Placemark><Placemark><name><![CDATA[Московский пр-т., 79]]></name><description/><Style><IconStyle><color>ff40db56</color><Icon><href>https://api-maps.yandex.ru/i/0.4/micro/pmgns.png</href></Icon><hotSpot x="7" y="28" xunits="pixels" yunits="insetPixels"/></IconStyle></Style><Point><coordinates>30.3183755,59.8999641</coordinates></Point></Placemark><Placemark><name><![CDATA[Моховая ул., 27]]></name><description/><Style><IconStyle><color>ff40db56</color><Icon><href>https://api-maps.yandex.ru/i/0.4/micro/pmgns.png</href></Icon><hotSpot x="7" y="28" xunits="pixels" yunits="insetPixels"/></IconStyle></Style><Point><coordinates>30.3449937,59.9420184</coordinates></Point></Placemark><Placemark><name><![CDATA[пр. Непокорённых, 49]]></name><description/><Style><IconStyle><color>ff40db56</color><Icon><href>https://api-maps.yandex.ru/i/0.4/micro/pmgns.png</href></Icon><hotSpot x="7" y="28" xunits="pixels" yunits="insetPixels"/></IconStyle></Style><Point><coordinates>30.3887392,59.9942677</coordinates></Point></Placemark><Placemark><name><![CDATA[б-р Новаторов, 11]]></name><description/><Style><IconStyle><color>ff40db56</color><Icon><href>https://api-maps.yandex.ru/i/0.4/micro/pmgns.png</href></Icon><hotSpot x="7" y="28" xunits="pixels" yunits="insetPixels"/></IconStyle></Style><Point><coordinates>30.2683758,59.8501211</coordinates></Point></Placemark><Placemark><name><![CDATA[ул. Пилотов, 32]]></name><description/><Style><IconStyle><color>ff40db56</color><Icon><href>https://api-maps.yandex.ru/i/0.4/micro/pmgns.png</href></Icon><hotSpot x="7" y="28" xunits="pixels" yunits="insetPixels"/></IconStyle></Style><Point><coordinates>30.2929382,59.8159223</coordinates></Point></Placemark><Placemark><name><![CDATA[Пискарёвский пр., 25]]></name><description/><Style><IconStyle><color>ff40db56</color><Icon><href>https://api-maps.yandex.ru/i/0.4/micro/pmgns.png</href></Icon><hotSpot x="7" y="28" xunits="pixels" yunits="insetPixels"/></IconStyle></Style><Point><coordinates>30.4127985,59.97</coordinates></Point></Placemark><Placemark><name><![CDATA[Малая Посадская ул., 16]]></name><description/><Style><IconStyle><color>ff40db56</color><Icon><href>https://api-maps.yandex.ru/i/0.4/micro/pmgns.png</href></Icon><hotSpot x="7" y="28" xunits="pixels" yunits="insetPixels"/></IconStyle></Style><Point><coordinates>30.3238434,59.9576661</coordinates></Point></Placemark><Placemark><name><![CDATA[Пулковское ш., 37]]></name><description/><Style><IconStyle><color>ff40db56</color><Icon><href>https://api-maps.yandex.ru/i/0.4/micro/pmgns.png</href></Icon><hotSpot x="7" y="28" xunits="pixels" yunits="insetPixels"/></IconStyle></Style><Point><coordinates>30.3204469,59.8061687</coordinates></Point></Placemark><Placemark><name><![CDATA[Саблинская ул., 14]]></name><description/><Style><IconStyle><color>ff40db56</color><Icon><href>https://api-maps.yandex.ru/i/0.4/micro/pmgns.png</href></Icon><hotSpot x="7" y="28" xunits="pixels" yunits="insetPixels"/></IconStyle></Style><Point><coordinates>30.308459,59.956729</coordinates></Point></Placemark><Placemark><name><![CDATA[ул. Севастьянова, 9]]></name><description/><Style><IconStyle><color>ff40db56</color><Icon><href>https://api-maps.yandex.ru/i/0.4/micro/pmgns.png</href></Icon><hotSpot x="7" y="28" xunits="pixels" yunits="insetPixels"/></IconStyle></Style><Point><coordinates>30.32992,59.874774</coordinates></Point></Placemark><Placemark><name><![CDATA[Социалистическая ул., 14]]></name><description/><Style><IconStyle><color>ff40db56</color><Icon><href>https://api-maps.yandex.ru/i/0.4/micro/pmgns.png</href></Icon><hotSpot x="7" y="28" xunits="pixels" yunits="insetPixels"/></IconStyle></Style><Point><coordinates>30.1291393,59.7747943</coordinates></Point></Placemark><Placemark><name><![CDATA[Уральская 17]]></name><description/><Style><IconStyle><color>ff40db56</color><Icon><href>https://api-maps.yandex.ru/i/0.4/micro/pmgns.png</href></Icon><hotSpot x="7" y="28" xunits="pixels" yunits="insetPixels"/></IconStyle></Style><Point><coordinates>30.258985,59.954308</coordinates></Point></Placemark><Placemark><name><![CDATA[набережная реки Фонтанки, 123]]></name><description/><Style><IconStyle><color>ff40db56</color><Icon><href>https://api-maps.yandex.ru/i/0.4/micro/pmgns.png</href></Icon><hotSpot x="7" y="28" xunits="pixels" yunits="insetPixels"/></IconStyle></Style><Point><coordinates>30.309244,59.920294</coordinates></Point></Placemark><Placemark><name><![CDATA[Цветочная ул., 16]]></name><description/><Style><IconStyle><color>ff40db56</color><Icon><href>https://api-maps.yandex.ru/i/0.4/micro/pmgns.png</href></Icon><hotSpot x="7" y="28" xunits="pixels" yunits="insetPixels"/></IconStyle></Style><Point><coordinates>30.3303463,59.8879863</coordinates></Point></Placemark><Placemark><name><![CDATA[пр-т. Энгельса, 27]]></name><description/><Style><IconStyle><color>ff40db56</color><Icon><href>https://api-maps.yandex.ru/i/0.4/micro/pmgns.png</href></Icon><hotSpot x="7" y="28" xunits="pixels" yunits="insetPixels"/></IconStyle></Style><Point><coordinates>30.3278984,60.0055536</coordinates></Point></Placemark><Placemark><name><![CDATA[пр-т. Энгельса, 34]]></name><description/><Style><IconStyle><color>ff40db56</color><Icon><href>https://api-maps.yandex.ru/i/0.4/micro/pmgns.png</href></Icon><hotSpot x="7" y="28" xunits="pixels" yunits="insetPixels"/></IconStyle></Style><Point><coordinates>30.32522,60.008323</coordinates></Point></Placemark><Placemark><name><![CDATA[ул. Егорова, 28]]></name><description/><Style><IconStyle><color>ff40db56</color><Icon><href>https://api-maps.yandex.ru/i/0.4/micro/pmgns.png</href></Icon><hotSpot x="7" y="28" xunits="pixels" yunits="insetPixels"/></IconStyle></Style><Point><coordinates>30.3146629,59.9100221</coordinates></Point></Placemark><Placemark><name><![CDATA[ул. Яблочкова, 12]]></name><description/><Style><IconStyle><color>ff40db56</color><Icon><href>https://api-maps.yandex.ru/i/0.4/micro/pmgns.png</href></Icon><hotSpot x="7" y="28" xunits="pixels" yunits="insetPixels"/></IconStyle></Style><Point><coordinates>30.299711,59.9510733</coordinates></Point></Placemark><Placemark><name><![CDATA[Заневский пр-т., 36]]></name><description/><Style><IconStyle><color>ff40db56</color><Icon><href>https://api-maps.yandex.ru/i/0.4/micro/pmgns.png</href></Icon><hotSpot x="7" y="28" xunits="pixels" yunits="insetPixels"/></IconStyle></Style><Point><coordinates>30.4283528,59.9336036</coordinates></Point></Placemark><Placemark><name><![CDATA[Лицей № 533]]></name><description/><Style><IconStyle><color>ff40db56</color><Icon><href>https://api-maps.yandex.ru/i/0.4/micro/pmgns.png</href></Icon><hotSpot x="7" y="28" xunits="pixels" yunits="insetPixels"/></IconStyle></Style><Point><coordinates>30.4176195,59.9266595</coordinates></Point></Placemark><Placemark><name><![CDATA[ул. Громова, 5]]></name><description/><Style><IconStyle><color>ff40db56</color><Icon><href>https://api-maps.yandex.ru/i/0.4/micro/pmgns.png</href></Icon><hotSpot x="7" y="28" xunits="pixels" yunits="insetPixels"/></IconStyle></Style><Point><coordinates>30.4108356,59.9224596</coordinates></Point></Placemark><Placemark><name><![CDATA[Бизнес-центр "T4"]]></name><description/><Style><IconStyle><color>ff40db56</color><Icon><href>https://api-maps.yandex.ru/i/0.4/micro/pmgns.png</href></Icon><hotSpot x="7" y="28" xunits="pixels" yunits="insetPixels"/></IconStyle></Style><Point><coordinates>30.3985612,59.9029233</coordinates></Point></Placemark><Placemark><name><![CDATA[ул. Бехтерева, 4]]></name><description/><Style><IconStyle><color>ff40db56</color><Icon><href>https://api-maps.yandex.ru/i/0.4/micro/pmgns.png</href></Icon><hotSpot x="7" y="28" xunits="pixels" yunits="insetPixels"/></IconStyle></Style><Point><coordinates>30.4020655,59.9029008</coordinates></Point></Placemark><Placemark><name><![CDATA[ул. Седова, 11]]></name><description/><Style><IconStyle><color>ff40db56</color><Icon><href>https://api-maps.yandex.ru/i/0.4/micro/pmgns.png</href></Icon><hotSpot x="7" y="28" xunits="pixels" yunits="insetPixels"/></IconStyle></Style><Point><coordinates>30.383159,59.905448</coordinates></Point></Placemark><Placemark><name><![CDATA[ул. Салова, 63]]></name><description/><Style><IconStyle><color>ff40db56</color><Icon><href>https://api-maps.yandex.ru/i/0.4/micro/pmgns.png</href></Icon><hotSpot x="7" y="28" xunits="pixels" yunits="insetPixels"/></IconStyle></Style><Point><coordinates>30.3650679,59.8837515</coordinates></Point></Placemark><Placemark><name><![CDATA[ул. Салова, 61]]></name><description/><Style><IconStyle><color>ff40db56</color><Icon><href>https://api-maps.yandex.ru/i/0.4/micro/pmgns.png</href></Icon><hotSpot x="7" y="28" xunits="pixels" yunits="insetPixels"/></IconStyle></Style><Point><coordinates>30.3683187,59.8849685</coordinates></Point></Placemark><Placemark><name><![CDATA[Белградская ул., 26, к2]]></name><description/><Style><IconStyle><color>ff40db56</color><Icon><href>https://api-maps.yandex.ru/i/0.4/micro/pmgns.png</href></Icon><hotSpot x="7" y="28" xunits="pixels" yunits="insetPixels"/></IconStyle></Style><Point><coordinates>30.36575,59.8599265</coordinates></Point></Placemark><Placemark><name><![CDATA[ул. Орджоникидзе, 22]]></name><description/><Style><IconStyle><color>ff40db56</color><Icon><href>https://api-maps.yandex.ru/i/0.4/micro/pmgns.png</href></Icon><hotSpot x="7" y="28" xunits="pixels" yunits="insetPixels"/></IconStyle></Style><Point><coordinates>30.328925,59.844759</coordinates></Point></Placemark></Folder></Document></kml>